frequency,location,lat,lon,mode,alphatag
129.525,BOMBIRA,-32.563753,149.615566,6K00A3E,Pelican
129.525,COBAR,-31.537534,145.797508,6K00A3E,Pelican
129.525,BALLINA,-28.837389,153.556333,6K00A3E,Pelican
129.525,DUBBO,-32.218492,148.569980,6K00A3E,Pelican
129.525,Williamtown,-32.804019,151.839467,6K00A3E,Pelican
129.525,BATHURST,-33.413764,149.654989,6K00A3E,Pelican
129.525,PORT MACQUARIE,-31.430823,152.868290,6K00A3E,Pelican
