frequency,location,lat,lon,mode,alphatag
148.9875,PARKES,-33.136782,148.1774,16K0F2D,
148.9875,MT GRAY,-34.758567,149.763092,16K0F2D,
148.9875,GOULBURN,-34.750096,149.719399,16K0F2D,
421.7,MT PERISHER,-36.409533,148.386463,10K1F9W,
148.9875,DUBBO,-32.237046,148.677689,16K0F2D,
148.9875,Dubbo,-32.253927,148.630498,16K0F2D,
148.9875,DUBBO,-32.244594,148.596590,16K0F2D,
148.9875,BEGA,-36.677023,149.837273,16K0F2D,
148.9875,MUMBULLA MOUNTAIN,-36.544939,149.866163,16K0F2D,
148.9875,Lawson,-33.721489,150.427058,16K0F2D,
423.675,JERILDERIE,-35.358671,145.718304,10K1F9W,
148.9625,BOWRAL,-34.464574,150.428225,16K0F2D,
423.6375,BUNNALOO,-35.781038,144.593693,10K1F9W,
421.5625,GUNDAGAI,-35.108544,148.121356,10K1F9W,
421.5375,MT YOUNGAL,-36.394897,148.118761,10K1F9W,
423.5625,COOKARDINIA,-35.556533,147.170655,10K1F9W,
148.9625,PICKETTS VALLEY,-33.450060,151.402990,16K0F2D,
148.9875,BROKEN HILL,-31.957386,141.463968,16K0F2D,
418.1875,DEEPWATER,-29.376913,152.009964,10K1F3E,
419.175,GUNNEDAH,-31.024321,150.191778,10K1F3E,
419.1875,WOOLGOOLGA,-30.111440,153.208885,10K1F3E,
419.15,YARROWITCH,-31.277367,151.849914,10K1F3E,
148.9875,NAROOMA,-36.220915,150.133773,16K0F2D,
148.9875,BUCKERIDGE LOOKOUT,-36.195511,150.083603,16K0F2D,
148.9875,YOUNG,-34.373760,148.277170,16K0F2D,
148.9875,YOUNG,-34.312461,148.298893,16K0F2D,
148.9875,BALRANALD,-34.637455,143.560694,16K0F2D,
148.9875,COOTAMUNDRA,-34.635972,148.028005,16K0F2D,
148.9875,LEETON,-34.550750,146.406124,16K0F2D,
148.9875,NARRANDERA,-34.746520,146.552431,16K0F2D,
148.9625,WALDALBA,-33.269393,151.470673,16K0F2D,
148.9875,WEE WAA,-30.225032,149.441331,16K0F2D,
148.9875,TAREE,-31.910436,152.456817,16K0F2D,
148.9875,BYRON BAY,-28.647563,153.612859,16K0F2D,
148.9875,CASINO,-28.861687,153.051314,16K0F2D,
148.9875,CORAKI,-28.991097,153.286264,16K0F2D,
148.9875,LISMORE,-28.814759,153.271586,16K0F2D,
148.9875,GOONELLABAH,-28.817789,153.318534,16K0F2D,
148.9875,Coolamon,-34.813368,147.203197,16K0F2D,
119.1,STATEWIDE,0.0,0.0,6K00A3E,
148.9875,MORUYA,-35.909114,150.079602,16K0F2D,
148.9875,COONAMBLE,-30.955631,148.389287,16K0F2D,
148.9625,WENTWORTH FALLS,-33.753987,150.371969,16K0F2D,
418.65,WOLUMLA PEAK,-36.864455,149.728115,10K1F3E,
421.7375,GRIFFITH,-34.277103,146.057769,10K1F9W,
148.9875,PEAK HILL,-32.731169,148.194364,16K0F2D,
148.9875,URALLA,-30.644032,151.500425,16K0F2D,
148.9875,QUIRINDI,-31.504486,150.679919,16K0F2D,
421.6375,WINIFRED,-36.519586,149.343902,10K1F9W,
422.8875,STATEWIDE,0.0,0.0,10K1F3E,
426.2875,STATEWIDE,0.0,0.0,10K1F3E,
148.9625,HASSANS WALLS,-33.505920,150.1478,16K0F2D,
421.575,COOMEALLA,-34.0845,142.0149,10K1F9W,
423.7125,PARINGI,-34.321476,142.391353,10K1F9W,
423.5625,EUSTON,-34.526662,142.809797,10K1F9W,
421.625,NARRANDERA,-34.751195,146.567489,10K1F9W,
421.75,BATLOW,-35.545560,148.199333,10K1F9W,
148.9875,Wollgoolga,-30.110235,153.189575,16K0F2D,
148.9875,GUYRA,-30.216387,151.669237,16K0F2D,
148.9875,OBERON,-33.703565,149.854189,16K0F2D,
148.9875,WALLERAWANG,-33.410587,150.066961,16K0F2D,
148.9875,MACLEAN,-29.457159,153.196914,16K0F2D,
148.9875,SPRINGDALE HEIGHTS,-36.020257,146.961538,16K0F2D,
418.65,DUMARESQ,-30.377312,151.601147,10K1F3E,
419.175,BINGARA,-29.871227,150.591861,10K1F3E,
418.1875,MANILLA,-30.730242,150.648587,10K1F3E,
419.15,WERRIS CREEK,-31.320891,150.749280,10K1F3E,
148.9875,BERRY,-34.776582,150.698981,16K0F2D,
148.9875,LAURIETON,-31.645951,152.795648,16K0F2D,
148.9625,WOLLONGONG,-34.425190,150.883530,16K0F2D,
148.9625,SPRINGWOOD,-33.700330,150.5630,16K0F2D,
148.9875,URUNGA,-30.497024,153.020883,16K0F2D,
132.55,STATEWIDE,0.0,0.0,6K00A3E,
148.9875,BERRIGAN,-35.658409,145.809205,16K0F2D,
148.9875,BATEMANS BAY,-35.711521,150.183749,16K0F2D,
148.9875,BRAIDWOOD,-35.442713,149.793373,16K0F2D,
148.9875,FORBES,-33.3851,148.009279,16K0F2D,
423.525,TIMBILLICA,-37.301730,149.710220,10K1F9W,
419.125,TIMBILLICA,-37.301730,149.710220,10K1F3E,
148.9875,BREWARRINA,-29.972085,146.759671,16K0F2D,
148.9875,COONABARABRAN,-31.277921,149.264852,16K0F2D,
148.9875,WALCHA,-30.983843,151.592416,16K0F2D,
148.9875,NARRABRI,-30.324389,149.784291,16K0F2D,
423.575,MT CRACKENBACK,-36.493124,148.287472,10K1F9W,
148.9625,NELSON BAY,-32.731620,152.131117,16K0F2D,
148.9625,MORISSET,-33.113899,151.513851,16K0F2D,
423.575,DENILIQUIN,-35.597749,145.036934,10K1F9W,
421.5875,YOUNG,-34.373760,148.277170,10K1F9W,
421.725,ALBURY,-36.077661,146.915736,10K1F9W,
421.75,ONE TREE,-34.214960,145.197179,10K1F9W,
148.9625,CORRABARE,-32.978419,151.246156,16K0F2D,
148.9875,BOMBALA,-36.910605,149.240107,16K0F2D,
148.9875,BOMBALA,-36.922009,149.250430,16K0F2D,
148.9875,INVERELL,-29.774898,151.114739,16K0F2D,
421.7125,MORUNDAH,-35.139176,146.039052,10K1F9W,
421.55,TURVEY PARK,-35.132713,147.372072,10K1F9W,
417.2625,BUCKRA BENDINNI,-30.662477,152.653305,10K1F3E,
148.9875,PERISHER VALLEY,-36.405245,148.413821,16K0F2D,
419.1,INVERELL,-29.780698,151.077046,10K1F3E,
148.9875,DUNEDOO,-32.017398,149.397181,16K0F2D,
148.9875,SCONE,-32.163505,150.889692,16K0F2D,
419.2,NARRABRI,-30.329036,149.7859,10K1F3E,
148.9875,COFFS HARBOUR,-30.298540,153.112876,16K0F2D,
148.9875,HAY,-34.502380,144.847294,16K0F2D,
148.9875,HILLSTON,-33.485402,145.531979,16K0F2D,
148.9875,TEMORA,-34.447576,147.537365,16K0F2D,
148.9625,KIRRAWEE,-34.027438,151.0803,16K0F2D,
148.9875,Nambucca Heads,-30.634988,152.979679,16K0F2D,
148.9875,ALSTONVILLE,-28.843831,153.440042,16K0F2D,
148.9875,Jerilderie,-35.359136,145.719991,16K0F2D,
132.35,STATEWIDE,0.0,0.0,6K00A3E,
148.9875,COROWA,-35.996009,146.394369,16K0F2D,
148.9875,TOCUMWAL,-35.812424,145.568988,16K0F2D,
148.9875,BLAYNEY,-33.530067,149.253409,16K0F2D,
148.9875,COOLAH,-31.825278,149.717097,16K0F2D,
423.725,KALKITE,-36.335681,148.663694,10K1F9W,
148.9875,Nowra,-34.870855,150.600641,16K0F2D,
421.575,MULWALA,-35.997808,145.996998,10K1F9W,
421.725,TUMUT,-35.360421,148.216558,10K1F9W,
148.9875,Tweed Heads,-28.187409,153.539530,16K0F2D,
423.525,MAUDE,-34.643357,144.196121,10K1F9W,
421.725,DENILIQUIN,-35.597749,145.036934,10K1F9W,
421.6625,FARGUNYAH,-35.1088,146.7904,10K1F9W,
148.9625,NEWCASTLE,-32.890673,151.538615,16K0F2D,
148.9875,GLEN INNES,-29.739362,151.737727,16K0F2D,
148.9875,ARMIDALE,-30.517650,151.668275,16K0F2D,
423.55,TURVEY PARK,-35.132713,147.372072,10K1F9W,
148.9875,CANOWINDRA,-33.560942,148.664015,16K0F2D,
148.9875,KANDOS,-32.859691,149.975103,16K0F2D,
417.1625,GLEN LYON DAM,-28.977764,151.475057,10K1F3E,
148.9875,MULLUMBIMBY,-28.552621,153.499550,16K0F2D,
148.9875,MURWILLUMBAH,-28.326127,153.395250,16K0F2D,
148.9875,DUNGOG,-32.403378,151.754553,16K0F2D,
148.9875,DORRIGO,-30.339967,152.713934,16K0F2D,
148.9875,HARDEN,-34.553868,148.364210,16K0F2D,
148.9875,MOREE,-29.465905,149.840909,16K0F2D,
148.9875,EVANS HEAD,-29.113653,153.427514,16K0F2D,
148.9875,Ballina,-28.852978,153.556522,16K0F2D,
128.7,STATEWIDE,0.0,0.0,6K00A3E,
123.65,STATEWIDE,0.0,0.0,6K00A3E,
119.1,KATOOMBA,-33.710004,150.3003,6K00A3E,
413.1,PEPPERS MOUNTAIN,-32.329098,151.958812,10K1F3E,
148.9875,FINLEY,-35.643275,145.577486,16K0F2D,
148.9875,COBAR,-31.500069,145.835745,16K0F2D,
148.9875,COBAR,-31.559676,145.879256,16K0F2D,
148.9875,WARREN,-31.697961,147.833909,16K0F2D,
148.9875,LAKE CARGELLIGO,-33.299362,146.371441,16K0F2D,
148.9875,MUSWELLBROOK,-32.395033,150.682787,16K0F2D,
148.9875,DENMAN,-32.383699,150.657378,16K0F2D,
148.9875,BOMADERRY,-34.788481,150.542204,16K0F2D,
148.9875,SOUTH NOWRA,-34.914979,150.579576,16K0F2D,
148.9875,LIGHTNING RIDGE,-29.431339,147.982047,16K0F2D,
148.9875,GUNNEDAH,-30.977875,150.251941,16K0F2D,
421.5125,BOMBALA,-36.922009,149.250430,10K1F9W,
421.575,MT CRACKENBACK,-36.493124,148.287472,10K1F9W,
422.6375,STATEWIDE,0.0,0.0,10K1F3E,
423.6375,REIDS FLAT,-34.105392,148.939097,10K1F9W,
148.9625,WARRAGAMBA,-33.893463,150.607561,16K0F2D,
148.9625,PARRAMATTA,-33.814269,151.001194,16K0F2D,
148.9875,Toormina,-30.350656,153.090214,16K0F2D,
148.9625,KATOOMBA,-33.702963,150.289540,16K0F2D,
423.55,BROKEN HILL,-31.956926,141.454041,10K1F9W,
421.5625,HAY,-34.461997,144.848453,10K1F9W,
421.5875,MOAMA,-36.031309,144.797561,10K1F9W,
423.7,MOAMA,-36.031309,144.797561,10K1F9W,
423.575,COOTAMUNDRA,-34.629463,148.092289,10K1F9W,
423.6875,TEMORA,-34.475368,147.533840,10K1F9W,
421.65,SPRINGDALE HEIGHTS,-36.020257,146.961538,10K1F9W,
421.5125,FINLEY,-35.6586,145.5668,10K1F9W,
148.9625,VAULT HILL,-34.167210,150.619063,16K0F2D,
148.9875,BINGARA,-29.883425,151.599130,16K0F2D,
148.9875,JINDABYNE,-36.416444,148.624707,16K0F2D,
148.9875,KALKITE,-36.335681,148.663694,16K0F2D,
148.9875,COWRA,-33.834674,148.694220,16K0F2D,
416.0875,BASSENDEAN,-30.091606,151.255538,10K1F3E,
148.9875,KINGSCLIFF,-28.250944,153.571330,16K0F2D,
148.9875,TEA GARDENS,-32.669531,152.163906,16K0F2D,
148.9875,SOUTH BROKEN HILL,-31.977829,141.461711,16K0F2D,
419.2,TAMWORTH,-31.075531,150.958535,10K1F3E,
418.65,MOREE,-29.470596,149.750975,10K1F3E,
419.15,GLEN INNES,-29.743776,151.751146,10K1F3E,
148.9875,GLOUCESTER,-32.008143,151.959701,16K0F2D,
148.9875,KEMPSEY,-31.080820,152.828320,16K0F2D,
148.9875,MACKSVILLE,-30.707524,152.918585,16K0F2D,
148.9875,ALBURY,-36.065770,146.930740,16K0F2D,
148.9625,ROSELANDS,-33.931188,151.075262,16K0F2D,
423.525,KYEAMBA,-35.494368,147.612125,10K1F9W,
148.9875,WAUCHOPE,-31.455459,152.731019,16K0F2D,
148.9875,BANGALOW,-28.686290,153.525875,16K0F2D,
148.9875,Port Macquarie,-31.444239,152.893401,16K0F2D,
119.1,WOLLONGONG,-34.425050,150.887533,6K00A3E,
417.4625,GRUNDY MTN,-31.326561,151.655579,10K1F3E,
417.55,NUNDLE,-31.587468,150.993211,10K1F3E,
148.9875,CULCAIRN,-35.665467,147.035831,16K0F2D,
148.9875,DENILIQUIN,-35.528542,144.964129,16K0F2D,
148.9875,HENTY,-35.519849,147.035104,16K0F2D,
148.9875,BOURKE,-30.088383,145.936403,16K0F2D,
148.9875,NARROMINE,-32.233873,148.242027,16K0F2D,
148.9625,MT ELLIOT,-33.403106,151.393883,16K0F2D,
148.9875,TAMWORTH,-31.350329,150.651628,16K0F2D,
148.9875,Boggabri,-30.703180,150.044641,16K0F2D,
148.9625,MOUNT VICTORIA,-33.585698,150.258044,16K0F2D,
423.55,MT DELEGATE,-37.111823,148.897514,10K1F9W,
421.725,YOUNG,-34.312461,148.298893,10K1F9W,
421.575,TEMORA,-34.475368,147.533840,10K1F9W,
423.5875,TOOMA,-35.898127,147.9491,10K1F9W,
423.6,COROWA,-35.994520,146.381070,10K1F9W,
148.9625,GLENBROOK,-33.774832,150.627753,16K0F2D,
148.9625,GREGORY HILLS,-34.041625,150.785775,16K0F2D,
148.9875,Batlow,-35.522917,148.148910,16K0F2D,
148.9875,CROOKWELL,-34.461176,149.472483,16K0F2D,
148.9875,CROOKWELL,-34.384948,149.473164,16K0F2D,
148.9875,TWEED HEADS SOUTH,-28.206128,153.537669,16K0F2D,
419.1875,TINGHA,-29.903964,151.246441,10K1F3E,
419.1,WALCHA,-30.988534,151.584032,10K1F3E,
419.2,WARIALDA,-29.497638,150.580598,10K1F3E,
148.9875,MILTON,-35.353654,150.352909,16K0F2D,
418.65,TENTERFIELD,-29.086143,151.966348,10K1F3E,
148.9875,MURRURUNDI,-31.764691,150.828617,16K0F2D,
148.9875,GRIFFITH,-34.289782,146.050717,16K0F2D,
148.9875,WEST WYALONG,-33.924772,147.021349,16K0F2D,
148.9875,Portland,-33.353796,149.984652,16K0F2D,
148.9875,MERRIWA,-32.139454,150.358277,16K0F2D,
148.9875,SOUTH WEST ROCKS,-30.890357,153.040744,16K0F2D,
148.9875,TAREE,-31.870478,152.372380,16K0F2D,
148.9875,BRUNSWICK HEADS,-28.540638,153.552238,16K0F2D,
148.9875,West Bathurst,-33.412239,149.555986,16K0F2D,
148.9875,KELSO,-33.419758,149.619806,16K0F2D,
148.9875,MT PANORAMA,-33.458866,149.548634,16K0F2D,
148.9875,Lavington,-36.035353,146.957827,16K0F2D,
128.7,STATEWIDE,0.0,0.0,6K00A3E,
148.9875,BARHAM,-35.629194,144.130223,16K0F2D,
148.9875,MOAMA,-36.108527,144.757081,16K0F2D,
148.9875,TUMBARUMBA,-35.779608,148.011216,16K0F2D,
148.9625,FREESTONE,-34.645821,150.147225,16K0F2D,
148.9625,SOMERSBY,-33.406084,151.295477,16K0F2D,
148.9875,WELLINGTON,-32.551579,148.945646,16K0F2D,
148.9875,TUMUT,-35.302518,148.221035,16K0F2D,
148.9875,TUMUT,-35.360467,148.216309,16K0F2D,
148.9875,WARIALDA,-29.542518,150.572657,16K0F2D,
148.9875,TENTERFIELD,-29.086143,151.966348,16K0F2D,
148.9875,TENTERFIELD,-29.055634,152.021195,16K0F2D,
148.9875,QUEANBEYAN,-35.341175,149.266224,16K0F2D,
423.7,GRIFFITH,-34.277103,146.057769,10K1F9W,
148.9625,HORSLEY PARK,-33.861548,150.854947,16K0F2D,
423.65,TUMUT,-35.360421,148.216558,10K1F9W,
148.9875,Nyngan,-31.554481,147.190842,16K0F2D,
421.675,BARHAM,-35.558525,144.191204,10K1F9W,
421.675,BOOROWA,-34.421647,148.750124,10K1F9W,
421.7375,JUNEE,-34.875275,147.576437,10K1F9W,
421.6,COOLAMON,-34.805610,147.196879,10K1F9W,
423.5125,NARRANDERA,-34.553025,146.610701,10K1F9W,
421.6375,BERRIGAN,-35.788870,145.7811,10K1F9W,
148.9875,Tamworth,-31.126993,150.922279,16K0F2D,
423.7125,WOLUMLA PEAK,-36.864455,149.728115,10K1F9W,
148.9875,ORANGE,-33.2829,149.094205,16K0F2D,
148.9875,KYOGLE,-28.620336,153.002452,16K0F2D,
148.9875,YAMBA,-29.438857,153.360201,16K0F2D,
419.15,URALLA,-30.6346,151.496188,10K1F3E,
419.125,BARRABA,-30.222172,150.493916,10K1F3E,
418.1875,THE TOPS,-29.807612,150.278748,10K1F3E,
419.1875,WEE WAA,-30.225032,149.441331,10K1F3E,
148.9875,BELLINGEN,-30.452770,152.899581,16K0F2D,
148.9875,BOWRAVILLE,-30.648632,152.852257,16K0F2D,
148.9875,FORSTER,-32.185865,152.514606,16K0F2D,
148.9875,BOOROWA,-34.434005,148.729555,16K0F2D,
148.9875,GRENFELL,-33.895220,148.161681,16K0F2D,
148.9875,WENTWORTH,-34.105260,141.916996,16K0F2D,
148.9625,POKOLBIN,-32.763513,151.223085,16K0F2D,
148.9625,BUNDANOON,-34.656732,150.297610,16K0F2D,
148.9875,Gulgong,-32.352686,149.534551,16K0F2D,
421.6875,TALBINGO,-35.6163,148.331463,10K1F9W,
421.875,LIVERPOOL,-33.919119,150.925201,10K1F9W,
148.9875,TURVEY PARK,-35.131964,147.355334,16K0F2D,
148.9875,TURVEY PARK,-35.132713,147.372072,16K0F2D,
148.9875,WAGGA WAGGA,-35.110390,147.365820,16K0F2D,
148.9875,Barraba,-30.383541,150.601007,16K0F2D,
132.55,STATEWIDE,0.0,0.0,6K00A3E,
123.65,STATEWIDE,0.0,0.0,6K00A3E,
119.1,STATEWIDE,0.0,0.0,6K00A3E,
148.9875,ALBURY,-36.077255,146.915903,16K0F2D,
148.9875,HOLBROOK,-35.719238,147.319339,16K0F2D,
148.9875,LOCKHART,-35.219437,146.715548,16K0F2D,
148.9875,YENDA,-34.255292,146.196422,16K0F2D,
148.9625,SADDLEBACK MOUNTAIN,-34.698339,150.792174,16K0F2D,
148.9875,MERIMBULA,-36.890040,149.908755,16K0F2D,
148.9875,MERIMBULA,-36.882945,149.893005,16K0F2D,
148.9875,TRANGIE,-32.032107,147.981879,16K0F2D,
148.9875,GUNDAGAI,-35.062543,148.1034,16K0F2D,
148.9875,GUNDAGAI,-35.108544,148.121356,16K0F2D,
148.9875,WALGETT,-30.115470,148.127411,16K0F2D,
421.725,KALKITE,-36.335681,148.663694,10K1F9W,
148.9875,QUEANBEYAN,-35.350390,149.229302,16K0F2D,
415.475,STATEWIDE,0.0,0.0,10K1F3E,
426.0375,STATEWIDE,0.0,0.0,10K1F3E,
423.65,HILLSTON,-33.539480,145.870175,10K1F9W,
148.9625,KURRAJONG HEIGHTS,-33.532162,150.620283,16K0F2D,
148.9625,RAYMOND TERRACE,-32.762309,151.742362,16K0F2D,
148.9875,Condoblin,-33.088106,147.150691,16K0F2D,
148.9625,MADDENS PLAINS,-34.263419,150.954547,16K0F2D,
421.55,BROKEN HILL,-31.956926,141.454041,10K1F9W,
421.525,BALRANALD,-34.591223,143.166873,10K1F9W,
421.65,BALRANALD,-34.556890,143.587609,10K1F9W,
423.575,CROOKWELL,-34.384948,149.473164,10K1F9W,
421.7,KINGSVALE,-34.484418,148.318322,10K1F9W,
423.725,BEREMANGERA,-34.812797,148.501445,10K1F9W,
423.6625,MT ULANDRA,-34.820550,147.901487,10K1F9W,
423.7125,MT RAVEN,-35.802163,147.254039,10K1F9W,
421.525,WALBUNDRIE,-35.721645,146.590321,10K1F9W,
148.9625,KNIGHTS HILL,-34.623543,150.694541,16K0F2D,
148.9625,CHARLESTOWN,-32.968797,151.694521,16K0F2D,
148.9625,HELENSBURGH,-34.169084,150.969656,16K0F2D,
416.1125,BOGGABRI,-30.703515,150.045909,10K1F3E,
148.9875,BUNDANOON,-34.656732,150.297610,16K0F2D,
419.2,BEN LOMOND,-30.007480,151.683440,10K1F3E,
419.1,MOUNT DOWE,-30.284506,150.167542,10K1F3E,
419.125,MOONBI TRIG,-30.946168,151.145191,10K1F3E,
148.9875,GRAFTON,-29.688783,152.935030,16K0F2D,
148.9875,SOUTH GRAFTON,-29.730995,152.921829,16K0F2D,
148.9875,SOUTH GRAFTON,-29.704938,152.935743,16K0F2D,
148.9875,COOMA,-36.235382,149.122989,16K0F2D,
148.9875,COOMA,-36.252362,149.078970,16K0F2D,
148.9875,GILGANDRA,-31.711076,148.657760,16K0F3D,
148.9875,ULLADULLA,-35.350449,150.476897,16K0F2D,
148.9875,YASS,-34.841978,148.911926,16K0F2D,
148.9875,JUNEE,-34.870375,147.586599,16K0F2D,
148.9625,CHATSWOOD,-33.796391,151.178976,16K0F2D,
148.9875,MANILLA,-30.749019,150.718572,16K0F2D,
148.9875,SCONE,-32.052661,150.867991,16K0F2D,
148.9875,MUSWELLBROOK,-32.265589,150.889136,16K0F2D,
132.35,STATEWIDE,0.0,0.0,6K00A3E,
119.1,NEWCASTLE,-32.929899,151.766368,6K00A3E,
148.9875,MULWALA,-35.988382,146.007268,16K0F2D,
148.9875,EDEN,-37.065189,149.898905,16K0F2D,
148.9875,MT PERISHER,-36.409533,148.386463,16K0F2D,
148.9875,THREDBO,-36.505079,148.307211,16K0F2D,
419.125,NARRABRI,-30.803078,149.484306,10K1F3E,
148.9875,MOLONG,-33.097707,148.865172,16K0F2D,
148.9875,MOLONG,-33.100944,148.865839,16K0F2D,
148.9875,MUDGEE,-32.599263,149.586729,16K0F2D,
423.5375,SPRINGDALE HEIGHTS,-36.020257,146.961538,10K1F9W,
