frequency,location,lat,lon,mode,alphatag
79.85,KELLERBERRIN,-31.630915,117.720116,10K1F3E,
415.375,GIDGEGANNUP,-31.676826,116.184372,10K1F3E,
415.075,PINJARRA,-32.649848,115.989991,10K1F3E,
412.85,CANNING MILLS,-32.074437,116.082857,10K1F3E,
415.275,CARMEL,-32.012667,116.061768,10K1F3E,
78.6875,TAMBELLUP,-34.042994,117.638922,10K1F3E,
79.85,DONGARA,-29.264854,114.933301,10K1F3E,
412.65,PEMBERTON,-34.466448,116.011338,10K1F3E,
164.6,KARRATHA,-20.749047,116.831828,8K10F1E,
79.85,WONGAN HILLS,-30.894405,116.723759,10K1F3E,
79.85,WYNDHAM,-15.477205,128.127608,10K1F3E,
78.7375,HYDEN,-32.423077,119.000306,10K1F3E,
78.7375,WADDINGTON,-30.786319,116.241080,10K1F3E,
78.625,YERRAMIN,-34.209337,116.460466,10K1F3E,
161.675,KUNUNURRA,-15.765081,128.742530,10K1F3E,
78.65,DOWERIN,-31.160160,117.000942,10K1F3E,
78.65,KUNUNURRA,-15.765081,128.742530,10K1F3E,
78.6625,KONDININ,-32.491608,118.547058,10K1F3E,
78.7,REDHILL,-31.829306,116.101815,10K1F3E,
78.7625,KARRATHA,-20.753796,116.795251,10K1F3E,
78.7625,SHOVELANNA,-23.329162,120.021189,10K1F3E,
78.6875,ROELANDS,-33.286133,115.899129,10K1F3E,
78.6875,THREE SPRINGS,-29.543630,115.674137,10K1F3E,
78.7375,WAGIN,-33.314408,117.279268,10K1F3E,
78.675,PINJARRA,-32.636851,116.018526,10K1F3E,
78.725,GNOWANGERUP,-33.929992,118.229950,10K1F3E,
79.85,KUKERIN,-33.188028,118.082822,10K1F3E,
79.85,KULIN,-32.672355,118.153878,10K1F3E,
422.8125,WA-WIDE,-23.763154,119.768237,10K1F3E,
426.2125,WA-WIDE,-23.763154,119.768237,10K1F3E,
79.85,HARVEY,-33.081269,115.899674,10K1F3E,
163.6125,East Carnarvon,-24.869720,113.678410,8K30F1E,
79.85,JURIEN BAY,-30.306349,115.044254,10K1F3E,
79.85,ALBANY,-35.0172,117.893512,10K1F3E,
79.85,CARNARVON,-24.887032,113.658903,10K1F3E,
79.85,DOWERIN,-31.193537,117.044502,10K1F3E,
79.85,GNOWANGERUP,-33.932762,118.004512,10K1F3E,
79.85,JERRAMUNGUP,-33.932469,118.934922,10K1F3E,
162.625,BRIDGETOWN,-33.935796,116.159679,10K1F3E,
79.85,KATANNING,-33.683127,117.563480,10K1F3E,
79.85,KONDININ,-32.489969,118.265959,10K1F3E,
412.65,CENTRAL PARK,-31.953420,115.855619,10K1F3E,
79.85,MUKINBUDIN,-30.907287,118.206453,10K1F3E,
79.85,PEMBERTON,-34.445289,116.031606,10K1F3E,
79.85,THREE SPRINGS,-29.534439,115.759701,10K1F3E,
164.15,BROOME,-17.964225,122.221519,8K10F1E,
415.4,CENTRAL PARK,-31.953420,115.855619,10K1F3E,
412.925,PINJARRA,-32.649848,115.989991,10K1F3E,
415.0125,FREMANTLE,-32.057926,115.751211,10K1F3E,
415.0875,PADBURY,-31.814573,115.771243,10K1F3E,
415.0,REDHILL,-31.829306,116.101815,10K1F3E,
414.9875,ROCKINGHAM,-32.288505,115.745936,10K1F3E,
79.85,WALPOLE,-34.975466,116.730918,10K1F3E,
78.7375,CARNARVON,-24.975345,119.945159,16K0F3E,
78.7375,KELLERBERRIN,-31.622780,117.709847,10K1F3E,
78.65,BOYUP BROOK,-33.857767,116.408584,10K1F3E,
78.6625,DENMARK,-34.966874,117.279208,10K1F3E,
78.6625,WYNDHAM,-15.452150,128.121748,10K1F3E,
78.675,KAMBALDA,-31.195859,121.668510,10K1F3E,
78.7625,YALLINGUP,-33.616281,115.044246,10K1F3E,
78.7125,BEVERLEY,-32.244080,116.8951,10K1F3E,
78.7125,GAIRDNER,-34.234224,118.988970,10K1F3E,
78.7125,GOOMALLING,-31.330776,116.789980,10K1F3E,
79.85,CATABY,-30.752427,115.558642,10K1F3E,
78.7,ESPERANCE,-33.877587,121.890671,10K1F3E,
412.475,MANJIMUP,-34.254814,116.148110,16K0F3E,
468.5,BELMONT,-31.945059,115.921795,10K1F3E,
79.85,DUMBLEYUNG,-33.310501,117.740581,10K1F3E,
163.775,KALGOORLIE,-30.738556,121.478632,8K10F1E,
413.075,BYFORD,-32.218554,116.043253,16K0F1D,
79.85,KUNUNURRA,-15.775422,128.733274,10K1F3E,
79.85,LEINSTER,-27.817522,120.738485,10K1F3E,
79.85,LEONORA,-28.887260,121.330855,10K1F3E,
413.13125,CARMEL,-32.012667,116.061768,16K0F2D,
79.85,MOORA,-30.639734,116.000979,10K1F3E,
79.85,MOUNT BARKER,-34.626191,117.654756,10K1F3E,
415.3875,PADBURY,-31.814573,115.771243,10K1F3E,
415.025,WOOROLOO,-31.801841,116.276874,10K1F3E,
412.875,FREMANTLE,-32.057926,115.751211,10K1F3E,
412.9375,PADBURY,-31.814573,115.771243,10K1F3E,
412.8875,REDHILL,-31.829306,116.101815,10K1F3E,
78.75,MUNGLINUP,-33.703091,120.935497,10K1F3E,
78.7375,WALPOLE,-34.826429,116.788752,10K1F3E,
78.7375,WICKHAM,-20.632696,117.152738,10K1F3E,
78.75,DANDARAGAN,-30.440937,115.386221,10K1F3E,
79.85,GERALDTON,-28.769396,114.625603,10K1F3E,
78.6375,MANJIMUP,-34.235657,115.980485,10K1F3E,
78.65,GINGIN,-31.360911,115.921418,10K1F3E,
78.6625,BRIDGETOWN,-33.935796,116.159679,10K1F3E,
78.75,MORAWA,-29.215706,115.998081,10K1F3E,
78.75,QUAIRADING,-31.895157,117.273285,10K1F3E,
78.7625,BUNJIL,-29.653402,116.362872,10K1F3E,
78.7625,CUNDERDIN,-31.667025,117.231449,10K1F3E,
78.7625,EXMOUTH,-21.816375,114.166224,10K1F3E,
78.725,MARGARET RIVER,-33.934679,115.086445,10K1F3E,
78.675,ONSLOW,-21.652505,115.116942,10K1F3E,
78.7,BRUCE ROCK,-31.882249,118.151536,10K1F3E,
78.7,NARROGIN,-32.940530,117.152860,10K1F3E,
78.7125,KALGOORLIE,-30.738236,121.478376,10K1F3E,
78.725,MERREDIN,-31.433750,118.413693,10K1F3E,
413.35625,WOOROLOO,-31.801841,116.276874,16K0F2D,
164.6,NORSEMAN,-32.202659,121.802571,8K10F1E,
413.20625,QUINNS ROCK,-31.676581,115.704453,16K0F2D,
412.725,WA-WIDE,-23.763154,119.768237,10K1F3E,
413.175,PINJARRA,-32.649848,115.989991,16K0F1D,
79.85,BEVERLEY,-32.102575,116.922662,10K1F3E,
79.85,BODDINGTON,-32.802865,116.475977,10K1F3E,
79.85,BRIDGETOWN,-33.951845,116.131773,10K1F3E,
79.85,BROOME,-17.959218,122.236325,10K1F3E,
79.85,CUE,-27.421836,117.897646,10K1F3E,
79.85,EXMOUTH,-21.928124,114.119416,10K1F3E,
79.85,PORT HEDLAND,-20.401394,118.914068,10K1F3E,
79.85,KALGOORLIE,-30.740849,121.470344,10K1F3E,
164.6,NORTHAM,-31.682216,116.616521,8K10F1E,
164.15,Margaret River,-33.950492,115.069713,8K10F1E,
414.75625,GIDGEGANNUP,-31.676826,116.184372,16K0F2D,
79.85,NORTHAMPTON,-28.351816,114.634458,10K1F3E,
164.6,NEWMAN,-23.355518,119.715186,8K10F1E,
412.8375,QUINNS ROCK,-31.676581,115.704453,10K1F3E,
415.3125,FREMANTLE,-32.057926,115.751211,10K1F3E,
415.375,PINJARRA,-32.649848,115.989991,10K1F3E,
78.75,WILLIAMS,-33.043112,116.826372,10K1F3E,
162.075,WALPOLE,-34.960706,116.739521,10K1F3E,
163.775,YALLINGUP,-33.616281,115.044246,8K10F1E,
78.7625,PEMBERTON,-34.466448,116.011338,10K1F3E,
78.725,TOODYAY,-31.586191,116.498402,10K1F3E,
78.75,CARNARVON,-24.882269,113.710444,10K1F3E,
79.85,YORK,-31.888051,116.756161,10K1F3E,
78.65,CORRIGIN,-32.168341,117.850895,10K1F3E,
78.65,HOWICK HILL,-33.724575,122.751062,10K1F3E,
78.6625,PINGELLY,-32.466490,117.106105,10K1F3E,
78.675,KATANNING,-33.793985,117.521598,10K1F3E,
78.7,AUGUSTA,-34.305835,115.156071,10K1F3E,
78.6875,NORSEMAN,-32.202659,121.802571,10K1F3E,
422.8625,WA-WIDE,-23.763154,119.768237,10K1F3E,
164.725,BRUNSWICK JUNCTION,-33.271039,115.860665,8K30F1E,
79.85,BINDOON,-31.387091,116.099066,10K1F3E,
79.85,GERALDTON,-28.782315,114.611280,10K1F3E,
79.85,GOOMALLING,-31.303965,116.830181,10K1F3E,
79.85,KALGOORLIE,-30.741102,121.468878,10K1F3E,
412.65,CARMEL,-32.012667,116.061768,10K1F3E,
79.85,LAKE GRACE,-33.102077,118.453405,10K1F3E,
413.15,QUINNS ROCK,-31.676581,115.704453,16K0F1D,
79.85,NORTHAM,-31.650096,116.658167,10K1F3E,
79.85,SOUTHERN CROSS,-31.231112,119.337784,10K1F3E,
415.075,GIDGEGANNUP,-31.676826,116.184372,10K1F3E,
415.25,QUINNS ROCK,-31.676581,115.704453,10K1F3E,
78.7625,COLLIE,-33.289654,116.408647,10K1F3E,
164.6,ROELANDS,-33.286133,115.899129,8K10F1E,
79.85,WICKHAM,-20.674342,117.142506,10K1F3E,
79.85,WILUNA,-26.592751,120.226781,10K1F3E,
162.95,WYNDHAM,-15.452150,128.121748,10K1F3E,
78.75,NEWLANDS,-33.684815,115.861010,10K1F3E,
78.75,WONGAN HILLS,-30.835999,116.640061,10K1F3E,
78.6625,CANNING MILLS,-32.074437,116.082857,10K1F3E,
78.675,DANDARAGAN,-30.665603,115.701567,10K1F3E,
78.675,MT MAGNET,-28.030842,117.824566,10K1F3E,
78.675,MULLEWA,-28.540047,115.503104,10K1F3E,
78.7,LAVERTON,-28.563163,122.393070,10K1F3E,
78.7,NORTHCLIFFE,-34.621160,116.479536,10K1F3E,
78.7125,DARKAN,-33.400910,116.781045,10K1F3E,
78.7125,MT BARKER,-34.655747,117.647055,10K1F3E,
78.7125,DONGARA,-29.253177,114.930861,10K1F3E,
413.05,WA-WIDE,-23.763154,119.768237,10K1F3E,
413.33125,FREMANTLE,-32.057926,115.751211,16K0F2D,
412.99375,CENTRAL PARK,-31.953420,115.855619,16K0F2D,
78.7125,JURIEN BAY,-30.306686,115.036658,10K1F3E,
78.675,PEMBERTON,-34.466448,116.011338,10K1F3E,
79.85,ALBANY,-35.004035,117.904558,10K1F3E,
79.85,AUGUSTA,-34.306121,115.157043,10K1F3E,
79.85,CORRIGIN,-32.324937,117.879075,10K1F3E,
79.85,KALBARRI,-27.711201,114.160702,10K1F3E,
79.85,KARRATHA,-20.745972,116.829075,10K1F3E,
79.85,KELLERBERRIN,-31.628402,117.717777,10K1F3E,
79.85,KUNUNOPPIN,-31.109477,117.922734,10K1F3E,
79.85,MULLEWA,-28.535675,115.510155,10K1F3E,
79.85,TOM PRICE,-22.695613,117.796742,10K1F3E,
412.925,GIDGEGANNUP,-31.676826,116.184372,10K1F3E,
414.95,QUINNS ROCK,-31.676581,115.704453,10K1F3E,
415.2875,ROCKINGHAM,-32.288505,115.745936,10K1F3E,
412.8625,CARMEL,-32.012667,116.061768,10K1F3E,
78.65,YALGOO,-28.342174,116.681028,10K1F3E,
79.85,NANNUP,-33.982990,115.767203,10K1F3E,
79.85,BROOKTON,-32.369593,117.006801,10K1F3E,
164.15,COLLIE,-33.344594,116.159816,8K10F1E,
79.85,WYALKATCHEM,-31.175684,117.385808,10K1F3E,
78.75,KOJONUP,-33.857379,117.164738,10K1F3E,
163.6125,BROOME,-17.965786,122.228836,10K1F3E,
78.65,KALBARRI,-27.741120,114.183040,10K1F3E,
78.65,TOM PRICE,-22.719869,117.761274,10K1F3E,
78.6625,LEINSTER,-27.817522,120.738485,10K1F3E,
78.7625,LANCELIN,-31.053181,115.4310,10K1F3E,
78.675,RAVENSTHORPE,-33.503964,120.035129,10K1F3E,
78.7,KOORDA,-30.825204,117.531574,10K1F3E,
78.725,COOMALBIDGUP,-33.545811,121.385802,10K1F3E,
78.725,CUE,-27.476582,117.832908,10K1F3E,
78.7625,KALBARRI,-27.981906,114.335905,10K1F3E,
163.775,MOONYOONOOKA,-28.735004,114.694862,8K10F1E,
412.60625,ROCKINGHAM,-32.288505,115.745936,16K0F2D,
163.4,Port Hedland,-20.3740,118.6130,8K10F1E,
79.85,ESPERANCE,-33.857225,121.892870,10K1F3E,
413.1,CARMEL,-32.012667,116.061768,16K0F1D,
413.175,REDHILL,-31.829306,116.101815,16K0F1D,
79.85,KOJONUP,-33.828984,117.152688,10K1F3E,
79.85,LAVERTON,-28.626020,122.400791,10K1F3E,
79.85,NORSEMAN,-32.197946,121.766509,10K1F3E,
79.85,PINGELLY,-32.535097,117.0952,10K1F3E,
79.85,QUAIRADING,-32.014390,117.402375,10K1F3E,
415.1,CENTRAL PARK,-31.953420,115.855619,10K1F3E,
412.9125,WOOROLOO,-31.801841,116.276874,10K1F3E,
415.325,WOOROLOO,-31.801841,116.276874,10K1F3E,
412.9,ROCKINGHAM,-32.288505,115.745936,10K1F3E,
415.2625,CANNING MILLS,-32.074437,116.082857,10K1F3E,
414.975,CARMEL,-32.012667,116.061768,10K1F3E,
78.7,COLLIE,-33.344594,116.159816,10K1F3E,
414.9875,NORTHAM,-31.682216,116.616521,10K1F9W,
78.7625,NORTHCLIFFE,-34.761255,116.087742,10K1F3E,
79.85,CUNDERDIN,-31.654460,117.244656,10K1F3E,
78.725,BODDINGTON,-32.964855,116.450861,10K1F3E,
78.7375,MINGENEW,-29.358999,115.237720,10K1F3E,
163.7875,SHOVELANNA,-23.329162,120.021189,10K1F3E,
78.65,DUMBLEYUNG,-33.304474,117.961806,10K1F3E,
78.6625,MUKINBUDIN,-31.040960,118.089208,10K1F3E,
78.6625,NORTHAMPTON,-28.236605,114.650760,10K1F3E,
78.7625,WICKEPIN,-32.759538,117.682364,10K1F3E,
78.65,YARLOOP,-32.937624,116.023879,10K1F3E,
78.7375,CARLOTTA,-34.020118,115.847147,10K1F3E,
78.675,WIALKI,-30.441113,118.067887,10K1F3E,
78.6875,ALBANY,-35.025305,117.894915,10K1F3E,
78.6875,LEONORA,-28.888716,121.452854,10K1F3E,
78.6875,MEEKATHARRA,-26.276815,118.758434,10K1F3E,
78.7,COOROW,-30.090053,115.549140,10K1F3E,
78.7125,MARGARET RIVER,-34.167552,115.059565,10K1F3E,
78.725,MOONYOONOOKA,-28.735004,114.694862,10K1F3E,
78.675,HOPETOUN,-33.933552,120.133249,10K1F3E,
78.675,WYALKATCHEM,-31.158082,117.272987,10K1F3E,
78.7375,KARRAGULLEN,-32.126339,116.299662,10K1F3E,
78.6875,BEVERLEY,-32.323420,116.715473,10K1F3E,
79.85,DALWALLINU,-30.276833,116.656461,10K1F3E,
79.85,PORT HEDLAND,-20.309445,118.589292,10K1F3E,
79.85,HYDEN,-32.447440,118.864347,10K1F3E,
412.825,PERTH,-31.951303,115.889560,10K1F3E,
79.85,MEEKATHARRA,-26.5956,118.499355,10K1F3E,
413.30625,CANNING MILLS,-32.074437,116.082857,16K0F2D,
413.25625,REDHILL,-31.829306,116.101815,16K0F2D,
413.225,FREMANTLE,-32.057926,115.751211,16K0F1D,
79.85,MERREDIN,-31.484931,118.276027,10K1F3E,
79.85,MORAWA,-29.212581,116.002463,10K1F3E,
79.85,NEWMAN,-23.354784,119.736522,10K1F3E,
79.85,WICKEPIN,-32.782207,117.501246,10K1F3E,
412.95,CENTRAL PARK,-31.953420,115.855619,10K1F3E,
415.3,REDHILL,-31.829306,116.101815,10K1F3E,
414.9625,CANNING MILLS,-32.074437,116.082857,10K1F3E,
78.725,FRANKLAND,-34.427281,116.782205,10K1F3E,
412.75,CERVANTES,-30.503889,115.066258,16K0F3E,
78.6875,MANJIMUP,-34.324713,115.853105,10K1F3E,
78.725,WUBIN,-30.128497,116.747088,10K1F3E,
78.65,BROOME,-17.965786,122.228836,10K1F3E,
78.7625,GOONGARRIE,-30.155990,121.265260,10K1F3E,
78.6625,MT BURDETT,-33.457591,122.142778,10K1F3E,
78.75,PORT HEDLAND,-20.313811,118.599909,10K1F3E,
78.675,NAREMBEEN,-32.184034,118.447331,10K1F3E,
78.675,YORK,-31.895329,116.789982,10K1F3E,
78.6875,SOUTHERN CROSS,-31.276228,119.509245,10K1F3E,
78.6875,NORTHAM,-31.682216,116.616521,10K1F3E,
78.7,LAKE GRACE,-33.094764,118.470161,10K1F3E,
78.7125,MOORINE ROCK,-31.317114,119.087036,10K1F3E,
78.725,COOLGARDIE,-30.835674,121.096336,10K1F3E,
78.75,WOOROLOO,-31.801841,116.276874,16K0F3E,
412.75,CAPEL,-33.562071,115.559223,16K0F3E,
426.2625,WA-WIDE,-23.763154,119.768237,10K1F3E,
413.15,ROCKINGHAM,-32.288505,115.745936,16K0F1D,
79.9375,WA-WIDE,-23.763154,119.768237,10K1F3E,
78.7625,JARRAHDALE,-32.469541,116.214016,10K1F3E,
79.85,DENMARK,-34.958703,117.352851,10K1F3E,
79.85,GERALDTON,-28.784565,114.616042,10K1F3E,
79.85,KAMBALDA,-31.203626,121.660581,10K1F3E,
79.85,KAMBALDA,-31.203086,121.660694,10K1F3E,
163.775,ALBANY,-35.025305,117.894915,8K10F1E,
412.56875,PADBURY,-31.814573,115.771243,16K0F2D,
79.85,MARGARET RIVER,-33.951690,115.070581,10K1F3E,
413.41875,PINJARRA,-32.649848,115.989991,16K0F2D,
79.85,MT MAGNET,-28.062809,117.846038,10K1F3E,
79.85,NAREMBEEN,-32.061982,118.391384,10K1F3E,
79.85,ONSLOW,-21.643453,115.115127,10K1F3E,
79.85,RAVENSTHORPE,-33.585514,120.044985,10K1F3E,
79.85,ROEBOURNE,-20.767004,117.144456,10K1F3E,
79.85,DENHAM,-25.926120,113.532312,10K1F3E,
79.85,WAGIN,-33.305008,117.347491,10K1F3E,
